{"id":"1","fields":{"name":"Brewpub-on-the-Green","city":"Fremont","state":"California","code":"","country":"United States","phone":"","website":"","updated":"2010-07-22 20:00:20","description":"","address":[],"geo":{"accuracy":"APPROXIMATE","lat":37.5483,"lon":-121.989},"_type":"geo_example"}}
{"id":"2","fields":{"name":"Capital City Brewing Company","city":"Washington","state":"District of Columbia","code":"20005","country":"United States","phone":"202.628.2222","website":"http://www.capcitybrew.com","updated":"2010-07-22 20:00:20","description":"Washington DC's first brewpub since prohibition, Capitol City Brewing Co. opened its doors in 1992. Our first location still stands in Downtown DC, at 11th and H St., NW. Our company policy is to bring the fine craft of brewing to every person who lives and visits our region, as well as treating them to a wonderful meal and a great experience.","address":["1100 New York Ave, NW"],"geo":{"accuracy":"ROOFTOP","lat":38.8999,"lon":-77.0272},"_type":"geo_example"}}
{"id":"3","fields":{"name":"Firehouse Grill & Brewery","city":"Sunnyvale","state":"California","code":"94086","country":"United States","phone":"1-408-773-9500","website":"","updated":"2010-07-22 20:00:20","description":"","address":["111 South Murphy Avenue"],"geo":{"accuracy":"RANGE_INTERPOLATED","lat":37.3775,"lon":-122.03},"_type":"geo_example"}}
{"id":"4","fields":{"name":"Hook & Ladder Brewing Company","city":"Silver Spring","state":"Maryland","code":"20910","country":"United States","phone":"301.565.4522","website":"http://www.hookandladderbeer.com","updated":"2010-07-22 20:00:20","description":"At Hook & Ladder Brewing we believe in great beer in the company of good friends, so we bring you three great beers for your drinking pleasure (please drink responsibly). Each of our beers is carefully crafted with the finest quality ingredients for a distinctive taste we know you will enjoy. Try one tonight, you just might get hooked. Through our own experiences in the fire and rescue service we have chosen the Hook & Ladder as a symbol of pride and honor to pay tribute to the brave men and women who serve and protect our communities.","address":["8113 Fenton St."],"geo":{"accuracy":"ROOFTOP","lat":38.9911,"lon":-77.0237},"_type":"geo_example"}}
{"id":"5","fields":{"name":"Jack's Brewing","city":"Fremont","state":"California","code":"94538","country":"United States","phone":"1-510-796-2036","website":"","updated":"2010-07-22 20:00:20","description":"","address":["39176 Argonaut Way"],"geo":{"accuracy":"ROOFTOP","lat":37.5441,"lon":-121.988},"_type":"geo_example"}}
{"id":"6","fields":{"name":"Sweet Water Tavern and Brewery","city":"Sterling","state":"Virginia","code":"20121","country":"United States","phone":"(703) 449-1108","website":"http://www.greatamericanrestaurants.com/sweetMainSter/index.htm","updated":"2010-07-22 20:00:20","description":"","address":["45980 Waterview Plaza"],"geo":{"accuracy":"RANGE_INTERPOLATED","lat":39.0324,"lon":-77.4097},"_type":"geo_example"}}
